City_ID,City,Lat,Lng,Max Temp,Humidity,Cloudiness,Wind Speed,Country,Date
0,albany,42.6001,-73.9662,-0.91,88,75,0.29,US,1702004422
1,castillos,-34.1667,-53.8333,14.39,86,1,3.67,UY,1702004425
2,puerto natales,-51.7236,-72.4875,8.29,90,92,1.53,CL,1702004428
3,quatre cocos,-20.2078,57.7625,27.27,75,61,2.98,MU,1702004430
4,nogliki,51.8333,143.1667,-6.48,94,100,6.71,RU,1702004432
5,whitehorse,60.7161,-135.0538,-4.57,85,75,6.17,CA,1702004435
6,telemaco borba,-24.3239,-50.6156,19.72,99,100,0.59,BR,1702004427
7,straldzha,42.6,26.6833,7.02,88,100,4.1,BG,1702004442
8,isafjordur,66.0755,-23.124,-2.6,79,59,3.65,IS,1702004423
9,fale old settlement,-9.3852,-171.2468,27.59,80,100,5.69,TK,1702004446
10,khandyga,62.6667,135.6,-27.5,96,100,2.22,RU,1702004449
11,meadow lakes,61.6247,-149.6011,-2.31,68,100,5.14,US,1702004156
12,warrnambool,-38.3833,142.4833,20.31,71,76,7.29,AU,1702004452
13,rondonopolis,-16.4708,-54.6356,25.09,69,11,1.05,BR,1702004300
14,dwarka,22.2394,68.9678,22.82,50,0,4.49,IN,1702004456
15,chibougamau,49.9168,-74.3659,-23.21,84,0,0.0,CA,1702004458
16,simpang,-1.2667,104.0833,30.87,63,97,2.04,ID,1702004460
17,pasuquin,18.3328,120.6177,29.97,70,40,2.06,PH,1702004462
18,blackmans bay,-43.0167,147.3167,21.07,62,76,0.89,AU,1702004464
19,georgetown,5.4112,100.3354,29.96,79,20,4.12,MY,1702004466
20,klyuchi,52.2667,79.1667,-22.75,74,95,3.53,RU,1702004468
21,linqiong,30.4159,103.4609,10.9,60,100,1.07,CN,1702004470
22,papatowai,-46.5619,169.4708,17.52,54,100,4.72,NZ,1702004472
23,westerland,54.9079,8.3033,-0.55,100,100,7.2,DE,1702004474
24,senador jose porfirio,-2.5908,-51.9542,24.08,94,76,1.2,BR,1702004476
25,port-aux-francais,-49.35,70.2167,4.49,85,97,15.54,TF,1702004426
26,constantia,44.1833,28.65,0.39,85,100,7.49,RO,1702004479
27,caluula,11.9661,50.7569,25.22,60,36,5.13,SO,1702004481
28,kodiak,57.79,-152.4072,-2.48,52,91,6.4,US,1702004486
29,grytviken,-54.2811,-36.5092,-1.32,88,60,4.53,GS,1702004488
30,qazax,41.0933,45.3661,6.95,91,97,1.08,AZ,1702004490
31,walvis bay,-22.9575,14.5053,16.16,88,1,2.94,NA,1702004494
32,mount gambier,-37.8333,140.7667,29.53,37,64,1.3,AU,1702004496
33,vorgashor,67.5833,63.95,-24.7,99,100,1.57,RU,1702004498
34,waitangi,-43.9535,-176.5597,14.9,71,86,0.89,NZ,1702004453
35,kununurra,-15.7667,128.7333,35.99,38,40,3.6,AU,1702004501
36,baijiantan,45.6333,85.1833,-3.64,52,100,5.36,CN,1702004502
37,conception bay south,47.4999,-52.9981,-2.92,81,79,9.81,CA,1702004410
38,jamestown,42.097,-79.2353,2.53,99,0,1.54,US,1702004506
39,alice springs,-23.7,133.8833,38.75,13,0,4.63,AU,1702004509
40,kalmunai,7.4167,81.8167,27.4,80,42,2.08,LK,1702004512
41,dera bugti,29.0307,69.151,14.88,28,0,2.25,PK,1702004514
42,wailua homesteads,22.0669,-159.378,23.81,83,81,0.76,US,1702004517
43,petropavlovsk-kamchatsky,53.0452,158.6483,-3.67,77,75,4.0,RU,1702004519
44,muli,2.9167,73.5667,27.56,81,100,8.9,MV,1702004521
45,dalcahue,-42.3628,-73.7022,9.06,81,0,2.06,CL,1702004429
46,tsiombe,-25.3,45.4833,22.61,82,59,5.5,MG,1702004527
47,west island,-12.1568,96.8225,27.99,74,40,6.69,CC,1702004529
48,aasiaat,68.7098,-52.8699,-11.56,86,100,1.11,GL,1702004531
49,lebu,-37.6167,-73.65,12.65,85,0,9.16,CL,1702004533
50,anadyr,64.75,177.4833,-20.72,84,6,12.0,RU,1702004535
51,tralee,52.2704,-9.7026,9.9,84,100,15.33,IE,1702004536
52,arkalyk,50.2486,66.9114,-20.81,62,3,5.94,KZ,1702004537
53,glace bay,46.1969,-59.957,-1.59,74,75,6.69,CA,1702004539
54,les sables-d'olonne,46.6667,-1.8333,9.44,84,70,7.63,FR,1702004542
55,abnub,27.2696,31.1511,12.12,47,0,1.74,EG,1702004545
56,tamanrasset,22.785,5.5228,10.95,22,0,2.06,DZ,1702004546
57,hammerfest,70.6634,23.6821,-6.75,73,60,5.14,NO,1702004549
58,hermanus,-34.4187,19.2345,17.89,85,10,2.89,ZA,1702004551
59,adamstown,-25.066,-130.1015,23.01,78,100,4.46,PN,1702004552
60,margaret river,-33.95,115.0667,19.07,53,32,7.0,AU,1702004557
61,ribeira grande,38.5167,-28.7,19.87,95,100,11.62,PT,1702004424
62,cacak,43.8914,20.3497,1.78,97,92,0.77,RS,1702004564
63,badger,64.8,-147.5333,-18.13,82,40,0.0,US,1702004566
64,avarua,-21.2078,-159.775,26.03,65,100,7.2,CK,1702004568
65,auki,-8.7676,160.7034,28.24,77,24,8.41,SB,1702004570
66,abra pampa,-22.7205,-65.697,12.6,65,85,6.59,AR,1702004572
67,bobbili,18.5667,83.3667,24.07,81,0,0.96,IN,1702004575
68,ewo,-0.8725,14.8206,22.71,92,94,0.89,CG,1702004576
69,ferrenafe,-6.6389,-79.7889,20.9,78,0,8.75,PE,1702004578
70,cafayate,-26.073,-65.9761,17.93,76,98,3.14,AR,1702004583
71,remire-montjoly,4.9167,-52.2667,25.02,94,75,3.09,GF,1702004588
72,baharampur,24.1,88.25,20.87,79,72,3.84,IN,1702004594
73,yigo village,13.5361,144.8886,30.62,71,75,7.2,GU,1702004595
74,dudinka,69.4058,86.1778,-31.85,96,7,2.68,RU,1702004383
75,olonkinbyen,70.9221,-8.7187,-3.27,76,88,5.15,SJ,1702004600
76,hawaiian paradise park,19.5933,-154.9731,24.73,82,75,3.6,US,1702004603
77,hadibu,12.65,54.0333,24.72,68,10,5.17,YE,1702004604
78,lompoc,34.6391,-120.4579,14.4,77,0,9.39,US,1702004533
79,tabou,4.423,-7.3528,24.16,91,56,1.68,CI,1702004608
80,prince rupert,54.3161,-130.3201,4.83,88,100,3.09,CA,1702004609
81,bilibino,68.0546,166.4372,-29.48,99,30,1.23,RU,1702004611
82,kovur,14.4833,79.9833,25.26,79,85,3.47,IN,1702004613
83,minas de marcona,-15.2119,-75.1103,15.28,80,26,4.99,PE,1702004616
84,mazatlan,23.2167,-106.4167,24.95,67,0,0.89,MX,1702004372
85,yellowknife,62.456,-114.3525,-10.71,92,100,2.06,CA,1702004459
86,tenno,39.9,139.9667,10.56,61,6,6.06,JP,1702004530
87,port elizabeth,-33.918,25.5701,18.16,88,75,9.26,ZA,1702004473
88,mermoz boabab,14.7065,-17.4758,23.88,83,0,3.09,SN,1702004627
89,invercargill,-46.4,168.35,16.85,60,100,4.58,NZ,1702004629
90,hamilton,39.1834,-84.5333,9.89,63,100,4.12,US,1702004553
91,hawkesbury,45.6001,-74.616,-6.84,96,91,1.61,CA,1702004633
92,yangjiang,21.85,111.9667,22.41,57,29,2.47,CN,1702004635
93,lawas,13.764,121.0566,29.43,67,49,4.53,PH,1702004638
94,i-n-salah,27.1935,2.4607,16.62,35,100,4.55,DZ,1702004639
95,tiksi,71.6872,128.8694,-33.53,100,90,1.69,RU,1702004642
96,kapuskasing,49.4169,-82.4331,-0.95,93,100,3.6,CA,1702004518
97,plaza huincul,-38.926,-69.2086,21.75,10,22,1.79,AR,1702004647
98,hasaki,35.7333,140.8333,15.22,35,0,2.45,JP,1702004651
99,tabalah,19.95,42.4,11.58,36,3,1.92,SA,1702004653
100,yuzhno-kurilsk,44.0306,145.8556,3.54,89,100,15.03,RU,1702004656
101,puente alto,-33.6167,-70.5833,21.52,40,0,1.93,CL,1702004541
102,port lincoln,-34.7333,135.8667,23.54,52,100,4.19,AU,1702004659
103,lepsy,46.235,78.9456,-5.17,41,100,5.68,KZ,1702004660
104,nemuro,43.3236,145.575,3.0,54,26,11.53,JP,1702004451
105,new norfolk,-42.7826,147.0587,21.72,22,86,1.74,AU,1702004664
106,sitka,57.0531,-135.33,2.94,87,40,3.6,US,1702004667
107,stanley,54.868,-1.6985,4.87,96,100,3.6,GB,1702004502
108,suances,43.4334,-4.0434,12.34,85,75,3.6,ES,1702004672
109,bethel,41.3712,-73.414,1.08,84,21,1.79,US,1702004674
110,tofol,5.3248,163.0078,28.88,84,75,7.2,FM,1702004675
111,san pedro pochutla,15.7333,-96.4667,24.26,72,18,1.59,MX,1702004677
112,holualoa,19.6228,-155.9522,25.91,70,75,5.14,US,1702004664
113,magalia,39.8121,-121.5783,5.79,94,84,0.45,US,1702004679
114,kashmar,35.2383,58.4656,7.5,29,5,0.87,IR,1702004681
115,adelaide,-34.9333,138.6,36.69,30,97,2.24,AU,1702004049
116,sarupathar,26.1984,93.8094,19.12,98,100,1.25,IN,1702004683
117,mizdah,31.4451,12.9801,8.94,85,4,2.57,LY,1702004685
118,puerto carreno,6.189,-67.4859,24.92,85,100,2.42,CO,1702004687
119,bonthe,7.5264,-12.505,25.55,84,0,1.11,SL,1702004689
120,vilhena,-12.7406,-60.1458,21.67,82,20,0.97,BR,1702004690
121,mormugao,15.4,73.8,24.59,73,100,3.09,IN,1702004692
122,yanam,16.7333,82.2167,25.55,84,28,1.37,IN,1702004693
123,talnakh,69.4865,88.3972,-33.84,85,5,1.48,RU,1702004694
124,bereznik,62.8551,42.7072,-21.28,99,86,1.52,RU,1702004696
125,iqaluit,63.7506,-68.5145,-11.15,79,20,4.63,CA,1702004493
126,wanganui,-39.9333,175.05,18.11,79,6,3.58,NZ,1702004699
127,tura,25.5198,90.2201,18.38,86,71,1.68,IN,1702004700
128,port alfred,-33.5906,26.891,16.77,87,11,1.34,ZA,1702004460
129,ain touta,35.3768,5.9,7.8,75,98,2.1,DZ,1702004707
130,udachny,66.4167,112.4,-27.53,75,100,1.55,RU,1702004709
131,puerto madryn,-42.7692,-65.0385,13.08,69,0,5.76,AR,1702004720
132,college,64.8569,-147.8028,-18.08,81,75,0.0,US,1702004721
133,valdivia,-39.8142,-73.2459,14.05,96,0,0.46,CL,1702004565
134,tadine,-21.55,167.8833,24.85,68,100,7.37,NC,1702004725
135,karratha,-20.7377,116.8463,38.55,17,7,6.42,AU,1702004727
136,labrador city,52.9463,-66.9114,-10.05,79,75,5.66,CA,1702004608
137,port augusta,-32.5,137.7667,44.24,10,90,14.78,AU,1702004729
138,ash shihaniyah,25.3686,51.2264,19.79,77,0,2.17,QA,1702004731
139,puerto ayora,-0.7393,-90.3518,24.19,96,45,2.24,EC,1702004733
140,sisimiut,66.9395,-53.6735,-5.9,71,100,3.5,GL,1702004736
141,zanjan,36.6736,48.4787,4.22,70,93,1.59,IR,1702004738
142,ebon,4.582,168.6964,28.05,81,95,7.16,MH,1702004739
143,popondetta,-8.7537,148.2534,35.78,40,43,3.37,PG,1702004745
144,greymouth,-42.4667,171.2,15.93,64,16,3.88,NZ,1702004747
145,saldanha,-33.0117,17.9442,18.03,90,0,3.37,ZA,1702004452
146,ushuaia,-54.8,-68.3,6.81,86,0,8.05,AR,1702004481
147,al kharijah,25.4514,30.5464,14.31,54,51,2.14,EG,1702004753
148,thompson,55.7435,-97.8558,-7.91,93,75,1.54,CA,1702004754
149,choyr,46.3611,108.3611,-13.52,81,6,3.33,MN,1702004756
150,edinburgh of the seven seas,-37.0676,-12.3116,14.95,85,100,7.25,SH,1702004759
151,ron phibun,8.1791,99.8542,31.75,74,72,2.43,TH,1702004761
152,yei,4.095,30.6779,19.79,68,0,1.08,SS,1702004762
153,telsiai,55.9814,22.2472,-6.44,90,100,4.33,LT,1702004764
154,tanjungtiram,4.0613,98.3699,27.12,81,100,2.41,ID,1702004767
155,ust-nera,64.5667,143.2,-28.74,98,100,3.13,RU,1702004768
156,tomohon,1.3346,124.8392,27.52,74,45,1.71,ID,1702004770
157,mount isa,-20.7333,139.5,36.87,18,0,2.57,AU,1702004489
158,qaqortoq,60.7167,-46.0333,3.18,54,100,6.8,GL,1702004773
159,cururupu,-1.8283,-44.8683,24.69,88,69,1.95,BR,1702004775
160,sault ste. marie,46.5168,-84.3333,2.16,93,100,2.06,CA,1702004545
161,punta arenas,-53.15,-70.9167,7.06,81,0,0.0,CL,1702004780
162,hatten,53.0167,8.35,1.08,93,100,1.79,DE,1702004782
163,kangding,30.0513,101.9603,13.12,42,99,1.06,CN,1702004784
164,afaahiti,-17.75,-149.2833,25.93,85,100,8.6,PF,1702004786
165,sao vicente,-23.9631,-46.3919,29.1,26,100,0.36,BR,1702004789
166,albox,37.3886,-2.1495,13.51,75,100,4.3,ES,1702004791
167,nar'yan-mar,67.6713,53.087,-14.38,96,100,3.58,RU,1702004794
168,banyuls de la marenda,42.4837,3.129,9.45,92,100,2.08,FR,1702004796
169,bredasdorp,-34.5322,20.0403,16.78,80,0,3.22,ZA,1702004799
170,longyearbyen,78.2186,15.6401,-1.09,69,40,6.69,SJ,1702004800
171,soderhamn,61.3037,17.0592,-2.8,97,100,5.4,SE,1702004803
172,la sarre,48.8002,-79.1996,-4.48,97,100,1.57,CA,1702004804
173,urengoy,65.9667,78.3667,-27.8,97,62,5.13,RU,1702004806
174,geraldton,-28.7667,114.6,26.23,36,0,10.29,AU,1702004563
175,argostolion,38.1811,20.489,11.53,62,19,11.1,GR,1702004811
176,cherdyn',60.403,56.4787,-27.71,98,72,0.83,RU,1702004815
177,pizarro,4.9533,-77.366,25.27,89,91,1.47,CO,1702004816
178,chadron,42.8294,-102.9999,7.82,56,0,10.29,US,1702004819
179,gadzhiyevo,69.2551,33.3362,-10.01,91,95,7.55,RU,1702004820
180,santana,-0.0583,-51.1817,28.1,83,40,4.12,BR,1702004637
181,saint-pierre,-21.3393,55.4781,25.87,83,20,1.54,RE,1702004826
182,vadso,70.0744,29.7487,-6.91,73,90,12.86,NO,1702004828
183,pangoa,-12.1167,-73.0,20.24,98,49,1.19,PE,1702004830
184,ha giang,22.8333,104.9833,22.88,58,10,1.48,VN,1702004832
185,bubaque,11.2833,-15.8333,27.28,72,60,3.66,GW,1702004638
186,calvinia,-31.4707,19.776,11.25,85,0,1.81,ZA,1702004835
187,ilulissat,69.2167,-51.1,-4.99,68,75,1.54,GL,1702004836
188,sinjai,-5.1241,120.253,30.29,65,100,1.63,ID,1702004838
189,el porvenir,13.7617,-87.3458,21.63,72,0,3.12,HN,1702004839
190,rongelap,11.1635,166.8941,27.39,83,29,9.42,MH,1702004840
191,erenhot,43.6475,111.9767,-4.37,58,98,4.42,CN,1702004843
192,rikaze,29.25,88.8833,-0.48,83,94,2.59,CN,1702004845
193,adrar,20.5022,-10.0711,17.04,14,37,4.15,MR,1702004847
194,khanty-mansiysk,61.0042,69.0019,-35.94,68,0,3.0,RU,1702004848
195,sandwip,22.4678,91.4561,22.45,89,86,2.82,BD,1702004850
196,correntina,-13.3433,-44.6367,21.7,50,48,0.54,BR,1702004853
197,tobruk,32.0836,23.9764,18.25,70,43,7.43,LY,1702004857
198,labuan,5.2767,115.2417,26.48,81,100,1.66,MY,1702004860
199,mitu,1.1983,-70.1733,22.45,99,100,0.59,CO,1702004861
200,dunedin,-45.8742,170.5036,15.89,68,100,1.48,NZ,1702004564
201,polyarnyy,69.1989,33.4478,-13.8,95,91,7.1,RU,1702004866
202,alofi,-19.0595,-169.9187,29.94,66,75,5.14,NU,1702004867
203,pisco,-13.7,-76.2167,19.45,82,0,3.09,PE,1702004869
204,vila franca do campo,37.7167,-25.4333,19.23,99,100,8.38,PT,1702004871
205,howrah,22.5892,88.3103,20.0,88,75,3.09,IN,1702004872
206,el calafate,-50.3408,-72.2768,14.07,62,54,3.31,AR,1702004875
207,guantanamo,20.1444,-75.2092,24.76,91,16,2.43,CU,1702004877
208,weno,7.4515,151.8468,28.97,79,100,4.63,FM,1702004879
209,urangan,-25.3,152.9,29.0,62,0,3.13,AU,1702004759
210,berezovyy,51.6667,135.7,-10.33,52,7,1.59,RU,1702004881
211,kinkala,-4.3614,14.7644,21.27,96,95,1.48,CG,1702004882
212,pangkalanbuun,-2.6833,111.6167,31.85,55,67,1.62,ID,1702004884
213,zhangye,38.9342,100.4517,3.65,25,0,1.02,CN,1702004885
214,susuman,62.7833,148.1667,-25.57,97,100,0.45,RU,1702004887
215,bijni,26.4959,90.703,18.45,88,100,2.82,IN,1702004889
216,beya,53.0533,90.9139,-16.8,80,95,3.79,RU,1702004891
217,as sulayyil,20.4607,45.5779,13.14,37,13,2.32,SA,1702004892
218,kingston,17.997,-76.7936,27.53,78,20,2.57,JM,1702004354
219,colonia,50.9333,6.95,3.36,80,75,5.66,DE,1702004753
220,ciudad lazaro cardenas,17.9583,-102.2,25.42,78,6,1.13,MX,1702004898
221,pangkalan brandan,4.0238,98.2782,27.03,82,100,1.79,ID,1702004899
222,prado,-17.3411,-39.2208,24.27,88,21,3.68,BR,1702004901
223,dragash,42.0625,20.6533,-3.84,88,13,1.04,XK,1702004903
224,malango,-2.9627,119.9001,25.58,75,100,0.57,ID,1702004905
225,san rafael,-34.6177,-68.3301,24.06,28,0,7.12,AR,1702004909
226,kerema,-7.9631,145.7785,29.09,70,100,3.67,PG,1702004911
227,porteirinha,-15.7433,-43.0283,21.98,64,97,2.27,BR,1702004913
228,portland,45.5234,-122.6762,8.12,93,100,2.68,US,1702004503
229,saudarkrokur,65.7461,-19.6394,-7.06,78,5,3.27,IS,1702004917
230,bay city,43.5945,-83.8889,3.88,88,0,2.57,US,1702004677
231,saint-joseph,-21.3667,55.6167,25.26,83,41,3.86,RE,1702004920
232,alaghsas,17.0187,8.0168,19.38,19,93,3.18,NE,1702004922
233,akureyri,65.6835,-18.0878,-11.35,97,57,3.0,IS,1702004925
234,tindouf,27.6711,-8.1474,17.15,34,100,1.25,DZ,1702004927
235,la ronge,55.1001,-105.2842,-7.12,95,100,2.28,CA,1702004929
236,port mathurin,-19.6833,63.4167,25.94,74,6,3.48,MU,1702004930
237,antsiranana,-12.2787,49.2917,26.04,77,1,5.92,MG,1702004844
238,yerofey pavlovich,53.9667,121.9667,-22.35,86,100,0.85,RU,1702004932
239,lihue,21.9789,-159.3672,25.77,76,75,3.6,US,1702004933
240,puerto deseado,-47.7503,-65.8938,10.62,69,6,6.5,AR,1702004935
241,smithers,54.7804,-127.1743,-4.82,93,100,1.54,CA,1702004744
242,ilhabela,-23.7781,-45.3581,23.98,92,100,3.22,BR,1702004943
243,taoudenni,22.6783,-3.9836,19.21,30,87,4.55,ML,1702004947
244,soke,13.598,-5.9386,23.47,15,27,4.15,ML,1702004949
245,cidreira,-30.1811,-50.2056,19.6,82,98,7.39,BR,1702004951
246,luena,-11.7833,19.9167,17.18,95,81,1.04,AO,1702004955
247,arraial do cabo,-22.9661,-42.0278,23.72,92,20,6.45,BR,1702004958
248,boende,-0.2167,20.8667,21.22,99,97,1.02,CD,1702004959
249,bodo,67.28,14.405,-3.98,68,40,12.86,NO,1702004960
250,touros,-5.1989,-35.4608,26.28,78,37,6.06,BR,1702004962
251,nellore,14.4333,79.9667,25.35,80,81,4.05,IN,1702004964
252,san patricio,28.017,-97.5169,22.13,77,99,6.37,US,1702004965
253,elliot lake,46.3834,-82.6331,-0.21,96,100,1.16,CA,1702004966
254,issia,6.4922,-6.5856,22.56,92,24,1.02,CI,1702004968
255,dryden,49.7833,-92.7503,0.99,77,100,4.06,CA,1702004969
256,dauphin,51.1494,-100.0502,1.08,100,100,4.63,CA,1702004971
257,ploudalmezeau,48.5333,-4.65,11.14,87,75,3.09,FR,1702004973
258,kismayo,-0.3582,42.5454,26.58,78,4,4.63,SO,1702004976
259,luderitz,-26.6481,15.1594,15.93,72,0,5.46,NA,1702004979
260,mangai,-4.05,19.5333,19.55,100,99,0.55,CD,1702004981
261,airway heights,47.6446,-117.5933,3.9,80,75,5.14,US,1702004983
262,george town,5.4112,100.3354,29.96,74,20,4.12,MY,1702004865
263,valparaiso,-33.0393,-71.6273,11.8,93,40,1.03,CL,1702004987
264,tazacorte,28.629,-17.9293,18.54,80,0,4.63,ES,1702004998
265,vorkuta,67.5,64.0,-24.68,99,100,1.65,RU,1702005000
266,fatezh,52.0891,35.8632,-7.01,90,100,5.93,RU,1702005012
267,coelho neto,-4.2567,-43.0128,26.13,76,96,2.0,BR,1702005013
268,san alejo,13.4314,-87.9631,23.85,64,0,1.15,SV,1702005015
269,ankang,32.68,109.0172,12.41,55,100,0.97,CN,1702005016
270,tamandare,-8.7597,-35.1047,25.08,82,99,3.43,BR,1702005017
271,pueblo,38.2545,-104.6091,14.42,23,0,3.6,US,1702005019
272,cockburn town,21.4612,-71.1419,25.23,69,100,7.82,TC,1702005020
273,mejit,10.2753,170.8646,27.73,80,97,10.35,MH,1702005022
274,nadym,65.5333,72.5167,-19.67,97,100,6.85,RU,1702005024
275,joniskis,56.2403,23.6153,-5.49,92,100,4.38,LT,1702005025
276,codrington,-38.2667,141.9667,19.75,71,61,6.07,AU,1702005027
277,sinabang,2.4803,96.3801,28.07,76,98,0.85,ID,1702005029
278,san antonio de pale,-1.4014,5.6325,25.77,84,100,2.03,GQ,1702005031
279,carnarvon,-24.8667,113.6333,24.24,54,0,9.36,AU,1702005033
280,bamyan,34.75,67.25,-4.53,37,100,0.91,AF,1702005035
281,jaguey grande,22.5269,-81.1286,17.83,82,44,2.66,CU,1702005037
282,port arthur,38.8,121.2667,14.12,71,43,6.24,CN,1702005010
283,aliwal north,-30.6937,26.7114,14.25,84,0,1.18,ZA,1702005040
284,penzance,50.1186,-5.5371,11.38,84,9,11.63,GB,1702005042
285,lauro de freitas,-12.8944,-38.3272,27.01,78,75,4.63,BR,1702005044
286,inhambane,-23.865,35.3833,23.42,83,100,3.69,MZ,1702005045
287,darhan,49.4867,105.9228,-17.81,94,100,1.0,MN,1702005046
288,princeville,45.7668,-61.2985,-0.32,89,100,8.75,CA,1702005047
289,selkirk,50.1436,-96.8845,3.99,74,100,1.79,CA,1702005049
290,angaur state,6.906,134.13,28.48,72,99,4.61,PW,1702005051
291,darwin,-12.4611,130.8418,35.03,67,20,3.09,AU,1702004563
292,ancud,-41.8697,-73.8203,9.15,90,0,1.5,CL,1702005038
293,hato mayor del rey,18.7628,-69.2568,22.66,93,1,3.64,DO,1702005056
294,onguday,50.75,86.15,-13.48,74,99,1.12,RU,1702005057
295,lerwick,60.1545,-1.1494,6.0,93,100,15.89,GB,1702005059
296,happy valley-goose bay,53.3168,-60.3315,-4.87,80,100,6.83,CA,1702005061
297,rio gallegos,-51.6226,-69.2181,9.4,72,95,6.63,AR,1702005063
298,xilin hot,43.9667,116.0333,-10.26,83,100,5.4,CN,1702005065
299,yangcun,39.3639,117.0603,8.99,26,36,2.05,CN,1702005068
300,bikenibeu village,1.3673,173.1241,26.98,89,100,2.06,KI,1702005024
301,amealco,20.1833,-100.15,7.04,87,98,1.96,MX,1702005073
302,lubang,13.8584,120.124,27.73,75,74,8.15,PH,1702005074
303,mana,5.6592,-53.7767,25.8,89,12,4.36,GF,1702005077
304,nuuk,64.1835,-51.7216,3.34,41,95,6.17,GL,1702005079
305,east london,-33.0153,27.9116,20.22,81,13,2.86,ZA,1702004979
306,cudillero,43.5622,-6.1459,10.51,82,75,5.66,ES,1702005083
307,jayapura,-2.5333,140.7,30.66,85,100,3.69,ID,1702005086
308,shenjiamen,29.9576,122.298,16.52,71,22,9.55,CN,1702004948
309,weleri,-6.9713,110.0666,30.94,73,80,1.01,ID,1702005090
310,la passe,45.5549,-0.8967,12.13,88,100,4.5,FR,1702005093
311,zhosaly,45.4878,64.0781,-4.24,42,100,7.32,KZ,1702005094
312,tangalle,6.024,80.7911,27.09,82,40,0.42,LK,1702005096
313,cidade velha,14.9167,-23.6167,23.26,83,20,5.66,CV,1702005098
314,mae hong son,19.3003,97.9685,26.69,78,44,0.63,TH,1702005101
315,maintirano,-18.0667,44.0167,26.0,82,15,1.54,MG,1702005103
316,rio pardo de minas,-15.6097,-42.5397,20.14,73,78,2.48,BR,1702005107
317,korla,41.7597,86.1469,2.03,52,98,4.37,CN,1702005063
318,santa terezinha,-29.9002,-50.0904,18.5,97,100,1.7,BR,1702005110
319,umuarama,-23.7664,-53.325,21.97,92,100,0.96,BR,1702005112
320,suwayr,30.1171,40.3893,13.52,59,0,3.52,SA,1702005114
321,gaiman,-43.2897,-65.4929,12.19,66,0,5.86,AR,1702005118
322,poco verde,-10.7083,-38.1833,21.72,96,68,2.42,BR,1702005121
323,shanhecun,44.7,127.2,3.74,82,85,8.32,CN,1702004947
324,tolanaro,-25.0319,46.9987,23.21,86,99,6.18,MG,1702005023
325,atafu village,-8.5421,-172.5159,28.8,73,82,1.6,TK,1702005030
326,inongo,-1.95,18.2667,21.69,96,100,1.25,CD,1702005127
327,saint-laurent-blangy,50.2945,2.807,5.29,95,100,4.54,FR,1702005129
328,crane,31.3974,-102.3501,16.23,52,0,6.36,US,1702005044
329,vernon,50.2581,-119.2691,4.23,87,100,0.97,CA,1702005071
330,kapa'a,22.0752,-159.319,26.18,79,75,3.6,US,1702005112
331,dumai,1.6833,101.45,30.19,66,89,1.47,ID,1702005021
332,hoek van holland,51.9775,4.1333,2.79,93,100,2.68,NL,1702005138
333,mufumbwe,-13.6833,24.8,17.1,95,83,1.65,ZM,1702005141
334,hrodna,53.6884,23.8258,-9.71,95,91,3.35,BY,1702005144
335,tidjikja,18.5564,-11.4271,20.37,16,93,5.77,MR,1702005148
336,yabelo,4.8833,38.0833,15.17,52,4,3.07,ET,1702005150
337,qamdo,31.1667,97.2333,-3.64,49,100,1.31,CN,1702005152
338,maragogi,-9.0122,-35.2225,24.7,83,99,2.9,BR,1702005155
339,torghay,49.6339,63.4981,-19.33,52,4,7.86,KZ,1702005160
340,kaduy,59.2,37.15,-20.6,100,100,1.61,RU,1702005162
341,utrik,11.2278,169.8474,27.59,76,68,9.99,MH,1702005044
342,khovd,48.0056,91.6419,-11.01,56,0,0.87,MN,1702005170
343,teknaf,20.8624,92.3058,24.81,91,85,2.51,BD,1702005172
344,fort bragg,35.139,-79.006,8.23,62,0,2.57,US,1702005092
345,hafar al-batin,28.4328,45.9708,12.32,58,0,0.0,SA,1702005176
346,deori khas,23.4,79.0167,17.4,82,0,1.98,IN,1702005180
347,aguas formosas,-17.0822,-40.9358,20.79,70,23,0.62,BR,1702005182
348,kerikeri,-35.2268,173.9474,22.73,57,0,0.45,NZ,1702005091
349,levuka,50.1834,-105.4011,0.62,96,100,6.58,CA,1702005062
350,itoman,26.1247,127.6694,24.21,53,20,5.66,JP,1702005190
351,lata,40.1629,-8.3327,12.67,91,97,2.07,PT,1702005192
352,howard springs,-12.497,131.047,33.26,67,98,1.01,AU,1702005194
353,glen innes,-29.7333,151.7333,34.94,19,4,1.43,AU,1702005196
354,dolores,-36.3132,-57.6792,11.13,86,0,3.09,AR,1702005198
355,murun-kuren,49.6342,100.1625,-16.28,59,92,6.44,MN,1702005200
356,aripuana,-9.1667,-60.6333,22.91,97,73,2.1,BR,1702005203
357,tonneins,44.3921,0.3124,12.46,95,100,4.48,FR,1702005205
358,mata-utu,-13.2816,-176.1745,28.48,78,99,6.21,WF,1702005038
359,loch garman,52.3342,-6.4575,10.5,96,60,6.26,IE,1702005209
360,brugnera,45.9044,12.5264,2.28,82,48,0.89,IT,1702005211
361,tallahassee,30.4383,-84.2807,7.96,90,75,0.0,US,1702004989
362,valga,57.7778,26.0473,-8.45,91,100,3.28,EE,1702005214
363,kertih,4.5141,103.4483,27.19,79,99,3.38,MY,1702005221
364,bardai,11.65,7.2333,18.83,22,64,3.58,NG,1702005223
365,znamenskoye,57.1281,73.8282,-31.97,95,24,2.09,RU,1702005224
366,waddan,29.1614,16.139,11.76,93,7,3.67,LY,1702005227
367,ingeniero guillermo n. juarez,-23.9,-61.85,22.97,84,89,3.41,AR,1702005218
368,taltal,-25.4,-70.4833,16.99,82,5,0.8,CL,1702005231
369,brokopondo,4.75,-55.1667,25.58,87,34,5.03,SR,1702005234
370,kimbe,-5.5502,150.1429,29.18,79,100,1.79,PG,1702005106
371,berberati,4.2612,15.7922,20.45,92,89,0.61,CF,1702005239
372,masterton,-40.9597,175.6575,15.1,69,100,2.26,NZ,1702005241
373,papao,-17.75,-149.55,26.82,80,100,8.05,PF,1702005114
374,zhanaozen,43.3,52.8,-0.27,65,76,6.56,KZ,1702005245
375,formosa do rio preto,-11.0483,-45.1931,22.27,43,97,0.81,BR,1702004963
376,sovetskaya gavan',48.9723,140.2878,-5.5,86,59,5.3,RU,1702005251
377,sola,-13.8833,167.55,27.26,79,100,6.63,VU,1702005141
378,santa marta,11.2408,-74.199,26.55,78,93,6.62,CO,1702005221
379,mindelo,16.8901,-24.9804,23.75,73,20,4.12,CV,1702005255
380,guarenas,10.4674,-66.6066,23.97,98,99,0.62,VE,1702005258
381,ljusdal,61.8288,16.0913,-5.96,98,98,1.3,SE,1702005259
382,isangel,-19.55,169.2667,26.69,62,100,6.63,VU,1702005261
383,colonel hill,22.7667,-74.2167,24.01,62,100,7.88,BS,1702005101
384,ola,59.5833,151.2833,-6.03,81,100,7.55,RU,1702005263
385,tome acu,-2.4189,-48.1522,24.5,86,63,1.03,BR,1702005265
386,kas,36.2018,29.6377,14.75,93,100,1.09,TR,1702005267
387,sao felix do xingu,-6.6447,-51.995,23.21,97,100,0.79,BR,1702005268
388,qusmuryn,52.4503,64.6311,-29.04,94,6,3.32,KZ,1702005269
389,pontes e lacerda,-15.2261,-59.3353,23.97,89,88,1.07,BR,1702005271
390,iskateley,67.6803,53.1512,-14.43,96,100,3.58,RU,1702005069
391,stornoway,58.2093,-6.3865,7.98,88,20,7.2,GB,1702005274
392,mont-laurier,46.5501,-75.4993,-8.21,98,60,0.57,CA,1702005276
393,pionerskiy,54.9508,20.2275,-4.03,83,67,6.33,RU,1702005278
394,hell-ville,-13.4,48.2667,26.81,77,92,1.86,MG,1702005281
395,hotan,37.0997,79.9269,7.49,11,100,0.82,CN,1702005283
396,bouna,9.2667,-3.0,24.66,33,82,0.37,CI,1702005286
397,suihua,46.6406,126.9969,-4.18,91,99,6.05,CN,1702005289
398,keflavik,64.0049,-22.5624,0.24,69,0,5.66,IS,1702005056
399,bolgar,54.95,49.0667,-24.76,97,33,2.9,RU,1702005292
400,dumas,35.8656,-101.9732,13.63,24,0,4.63,US,1702005295
401,luau,-10.7073,22.2247,17.91,97,100,1.2,AO,1702005235
402,saipan,15.1355,145.701,29.39,74,40,7.2,MP,1702005077
403,cadale,2.7603,46.3222,25.43,76,0,6.32,SO,1702005305
404,esik,43.3552,77.4525,-4.32,54,100,1.84,KZ,1702005309
405,midvagur,62.0511,-7.1939,6.46,81,100,9.77,FO,1702005310
406,monte alegre,-2.0078,-54.0692,24.82,89,73,1.77,BR,1702005106
407,lazaro cardenas,17.9583,-102.2,25.42,78,6,1.13,MX,1702005314
408,progreso,21.2833,-89.6667,23.06,78,100,4.88,MX,1702005317
409,fort mcmurray,56.7268,-111.381,-3.48,69,0,1.99,CA,1702005130
410,santa cruz,-17.8,-63.1667,22.81,92,99,3.61,BO,1702005303
411,sligo,54.2697,-8.4694,8.16,90,100,8.9,IE,1702005322
412,mildura,-34.2,142.15,41.63,12,74,13.7,AU,1702005323
413,cabo san lucas,22.8909,-109.9124,25.28,66,0,3.6,MX,1702005280
414,zakamensk,50.3741,103.2863,-20.9,87,99,1.09,RU,1702005328
415,laguna,38.421,-121.4238,11.27,93,100,0.0,US,1702005239
416,haimen,23.1935,116.6142,19.87,54,56,3.45,CN,1702005332
417,tual,-5.6667,132.75,28.89,70,98,0.91,ID,1702005021
418,horta,38.5333,-28.6333,19.45,95,100,11.18,PT,1702005336
419,salinopolis,-0.6136,-47.3561,27.22,80,40,4.72,BR,1702005279
420,santa cruz cabralia,-16.2781,-39.0247,25.13,83,20,2.06,BR,1702005341
421,lorengau,-2.0226,147.2712,27.46,83,100,5.48,PG,1702005343
422,bamboo flat,11.7,92.7167,28.05,83,40,0.51,IN,1702005344
423,uchiza,-8.4592,-76.4633,21.3,97,51,1.0,PE,1702005346
424,angra do heroismo,38.65,-27.2167,19.51,98,100,5.81,PT,1702005348
425,sake,-1.5736,29.045,16.42,93,17,0.42,CD,1702005349
426,kuching,1.55,110.3333,31.79,75,40,1.03,MY,1702004913
427,shenkursk,62.1091,42.896,-18.19,98,88,1.33,RU,1702005352
428,slave lake,55.2834,-114.769,-7.01,86,0,2.06,CA,1702005354
429,maceio,-9.6658,-35.7353,24.69,100,40,2.57,BR,1702005355
430,bojnurd,37.4747,57.329,6.48,50,30,1.4,IR,1702005357
431,chui,-33.6971,-53.4616,14.64,87,8,3.34,UY,1702005358
432,swakopmund,-22.6833,14.5333,16.1,89,5,0.45,NA,1702005266
433,puerto baquerizo moreno,-0.9,-89.6,23.96,90,6,5.13,EC,1702005145
434,namibe,-15.1961,12.1522,22.95,75,100,4.18,AO,1702005039
435,rio grande,-32.035,-52.0986,17.19,67,77,7.88,BR,1702005023
436,trapani,37.8333,12.6667,10.15,68,10,1.79,IT,1702005352
437,hithadhoo,-0.6,73.0833,27.98,75,95,4.74,MV,1702005070
438,sao joao da barra,-21.6403,-41.0511,23.5,87,2,1.83,BR,1702005183
439,altai,46.3722,96.2583,-13.88,60,0,0.77,MN,1702005372
440,shetpe,44.1667,52.1167,-1.59,76,90,6.37,KZ,1702005375
441,birjand,32.8663,59.2211,0.26,32,0,3.09,IR,1702005376
442,nurota,40.5614,65.6886,3.06,49,100,1.99,UZ,1702005378
443,saint-philippe,-21.3585,55.7679,24.77,91,96,2.07,RE,1702005176
444,gazli,40.1333,63.45,2.54,36,100,2.84,UZ,1702005045
445,vanino,49.0869,140.2543,-5.6,67,59,4.53,RU,1702005386
446,aykhal,66.0,111.5,-28.6,100,99,2.39,RU,1702005172
447,vilyuchinsk,52.9306,158.4028,-2.85,82,100,2.16,RU,1702005390
448,guerrero negro,27.9769,-114.0611,18.17,76,0,7.87,MX,1702005391
449,kailua-kona,19.6406,-155.9956,27.98,70,75,5.14,US,1702005393
450,clodomira,-27.5744,-64.1311,22.36,59,0,2.73,AR,1702005395
451,knjazevac,43.5648,22.2502,2.94,96,97,1.58,RS,1702005396
452,vilyuysk,63.7553,121.6247,-45.56,100,97,1.34,RU,1702005050
453,uturoa,-16.7333,-151.4333,27.04,78,61,3.47,PF,1702005220
454,rabo de peixe,37.8,-25.5833,18.73,99,75,7.72,PT,1702005402
455,shambu,9.5667,37.1,11.78,67,99,0.69,ET,1702005403
456,dali,25.7,100.1833,10.63,95,100,0.85,CN,1702005405
457,kiunga,-6.1219,141.2906,29.61,78,44,1.17,PG,1702005407
458,sant antoni de portmany,38.9807,1.3036,16.32,87,20,7.72,ES,1702005409
459,raduzhny,62.0961,77.475,-24.86,97,100,4.56,RU,1702005411
460,guarapari,-20.6667,-40.4975,25.5,84,5,5.99,BR,1702005414
461,inarajan village,13.2736,144.7484,31.54,79,100,8.15,GU,1702005415
462,sidi okba,34.7451,5.8983,11.16,58,0,1.03,DZ,1702005418
463,lensk,60.7253,114.9278,-39.25,97,84,1.63,RU,1702005420
464,porbandar,21.6422,69.6093,22.05,51,0,3.98,IN,1702005421
465,khorixas,-20.3667,14.9667,21.53,24,65,1.75,NA,1702005423
466,isiro,2.7739,27.616,18.76,98,56,0.68,CD,1702005133
467,warmbad,-28.45,18.7333,15.46,55,0,3.39,NA,1702005152
468,yeniseysk,58.4497,92.1703,-32.25,98,85,0.45,RU,1702005427
469,qarshi,38.8667,65.8,3.9,100,100,1.03,UZ,1702005429
470,shubarshi,48.5872,57.1869,-11.53,78,46,5.29,KZ,1702005430
471,quellon,-43.1167,-73.6167,8.87,92,2,2.93,CL,1702005432
472,kindu,-2.95,25.95,20.96,100,99,0.52,CD,1702005433
473,akobo,7.4344,3.9497,22.95,94,98,0.86,NG,1702005434
474,atbasar,51.8,68.3333,-30.86,93,6,3.22,KZ,1702005436
475,ampanihy,-24.7,44.75,21.98,72,23,3.89,MG,1702005437
476,muynoq,43.7683,59.0214,0.97,60,99,7.88,UZ,1702005438
477,latehar,23.75,84.5,16.95,88,100,0.76,IN,1702005439
478,oderzo,45.7882,12.5019,2.3,78,49,1.81,IT,1702005239
479,faya-largeau,17.9257,19.1043,19.59,21,63,3.77,TD,1702005443
480,jinghong,21.991,100.7341,23.44,91,98,0.96,CN,1702005201
481,barra do bugres,-15.0725,-57.1811,26.7,54,40,0.92,BR,1702005214
482,nouadhibou,20.931,-17.0347,20.99,64,1,7.2,MR,1702005106
483,vila velha,-20.3297,-40.2925,25.97,81,20,5.14,BR,1702005089
484,andorra,42.5,1.5,6.54,89,100,1.49,AD,1702005450
485,mansa,29.9833,75.3833,15.98,26,0,0.91,IN,1702005452
486,flying fish cove,-10.4217,105.6791,27.82,78,75,4.63,CX,1702005124
487,villamontes,-21.25,-63.5,21.65,96,100,1.7,BO,1702005456
488,sanctuary point,-35.1114,150.629,30.55,59,78,5.85,AU,1702005457
489,puerto madero,14.7208,-92.4215,25.11,100,0,0.0,MX,1702005459
490,vallenar,-28.5708,-70.7581,17.66,63,0,1.37,CL,1702005186
491,tocopilla,-22.092,-70.1979,18.95,72,37,1.88,CL,1702005464
492,khanpur,28.6453,70.6567,16.84,28,0,3.32,PK,1702005466
493,midelt,32.6852,-4.7451,11.87,44,100,5.21,MA,1702005467
494,harper,4.375,-7.7169,25.93,83,42,3.45,LR,1702005469
495,belozersk,60.0326,37.7957,-15.01,96,94,2.24,RU,1702005471
496,ukhta,63.5671,53.6835,-28.58,100,96,1.34,RU,1702005473
497,baie-comeau,49.2168,-68.1489,-10.18,85,0,2.57,CA,1702005475
498,tazovsky,67.4667,78.7,-27.31,93,6,5.82,RU,1702005029
499,nikolayevsk-on-amure,53.1406,140.73,-7.51,76,100,3.48,RU,1702005217
500,zhuanghe,39.7008,122.9911,10.18,86,88,1.77,CN,1702005272
501,hilo,19.7297,-155.09,24.85,80,75,3.6,US,1702005282
502,st. paul,44.9444,-93.0933,7.1,80,0,7.2,US,1702005486
503,awjilah,29.1081,21.2869,13.49,48,0,6.0,LY,1702005487
504,ulladulla,-35.35,150.4667,37.09,60,96,5.13,AU,1702005490
505,belmonte,-15.8631,-38.8828,24.41,85,1,3.19,BR,1702005493
506,qina,26.1642,32.7267,16.05,42,70,1.67,EG,1702005495
507,rodolfo sanchez taboada,31.7167,-116.5667,15.61,77,2,2.24,MX,1702005497
508,okhotsk,59.3833,143.3,-3.22,93,100,20.63,RU,1702005498
509,olavarria,-36.8927,-60.3225,14.72,84,20,3.85,AR,1702005499
510,north platte,41.1239,-100.7654,11.32,35,0,8.94,US,1702005501
511,yinchuan,38.4681,106.2731,7.31,19,0,1.01,CN,1702005504
512,kone,-21.0595,164.8658,28.45,51,100,4.08,NC,1702005505
513,lisala,2.15,21.5167,20.68,99,97,0.89,CD,1702005506
514,cooma,-36.2333,149.1333,25.97,44,100,1.88,AU,1702005508
515,jaunay-clan,46.6845,0.3713,11.29,48,100,3.09,FR,1702005509
516,merizo village,13.2658,144.6691,31.31,77,100,8.16,GU,1702005274
517,gizo,-8.103,156.8419,29.1,74,98,7.05,SB,1702005069
518,kachia,9.8667,7.95,20.02,21,82,2.81,NG,1702005515
519,pangody,65.85,74.4859,-20.4,94,100,6.42,RU,1702005517
520,galveston,29.3669,-94.9669,18.33,85,100,0.45,US,1702005520
521,nuku'alofa,-21.1333,-175.2,29.19,74,40,4.12,TO,1702005521
522,juneau,58.3019,-134.4197,3.0,97,100,3.09,US,1702005523
523,naze,28.3667,129.4833,17.57,58,0,2.53,JP,1702004976
524,nalut,30.3333,10.85,9.9,76,2,2.34,LY,1702005526
525,suoyarvi,62.0833,32.35,-17.48,100,99,1.64,RU,1702005527
526,siracusa,37.0881,15.2792,9.77,55,16,2.49,IT,1702005529
527,north battleford,52.7834,-108.2847,0.05,86,100,3.09,CA,1702005530
528,galle,6.0367,80.217,27.4,79,39,0.71,LK,1702005531
529,parauapebas,-6.0675,-49.9022,22.84,98,82,1.03,BR,1702005533
530,miracema do tocantins,-9.5618,-48.3967,26.98,62,97,1.47,BR,1702005534
531,la'ie,21.6477,-157.9253,27.25,67,19,0.89,US,1702005049
532,quesnel,52.9999,-122.5029,-2.72,93,100,0.0,CA,1702005537
533,sultanah,24.4926,39.5857,19.25,34,0,2.06,SA,1702005538
534,fort st. john,56.2499,-120.8529,-6.83,83,100,1.34,CA,1702005087
535,dhi as sufal,13.8345,44.1147,13.14,68,22,2.07,YE,1702005541
536,pacific grove,36.6177,-121.9166,12.06,90,100,0.89,US,1702005243
537,usinsk,65.9939,57.5281,-19.96,99,100,3.13,RU,1702005282
538,vegreville,53.5001,-112.0518,-6.83,93,80,2.57,CA,1702005547
539,carroll,39.5501,-77.0164,5.18,72,0,0.89,US,1702005277
540,brainerd,46.358,-94.2008,7.14,74,0,5.66,US,1702005551
541,jinxiang,27.4327,120.6062,18.05,56,1,1.34,CN,1702005552
542,praia da vitoria,38.7333,-27.0667,19.31,98,100,13.33,PT,1702005045
543,ad dawadimi,24.5077,44.3924,12.64,22,0,4.84,SA,1702005557
544,barguzin,53.6167,109.6167,-18.86,92,78,3.68,RU,1702005559
545,shuangjiang,26.1547,109.7138,18.79,43,41,3.83,CN,1702005560
546,pyin oo lwin,22.0333,96.4667,16.41,99,100,1.16,MM,1702005562
547,frederico westphalen,-27.3592,-53.3944,19.33,97,97,1.11,BR,1702005563
548,honefoss,60.168,10.2565,-5.16,96,87,2.05,NO,1702005564
549,ogoja,6.6547,8.7976,23.77,60,85,1.87,NG,1702005566
550,coquimbo,-29.9533,-71.3436,15.73,84,15,1.87,CL,1702004981
551,pasni,25.2631,63.471,21.54,47,0,2.56,PK,1702005569
552,banda aceh,5.5577,95.3222,28.25,76,99,3.78,ID,1702005571
553,tarko-sale,64.9225,77.785,-21.32,95,100,6.69,RU,1702005572
554,pipar,26.3856,73.5378,16.9,34,0,1.88,IN,1702005574
555,rovinj,45.08,13.64,1.9,71,7,1.64,HR,1702005577
556,antalaha,-14.9003,50.2788,24.46,86,94,2.37,MG,1702005578
557,san luis de la loma,17.2706,-100.8939,25.4,79,11,1.65,MX,1702005579
558,kristiansund,63.1115,7.732,-2.64,63,0,4.12,NO,1702005581
559,zhezqazghan,47.7833,67.7667,-16.68,78,40,7.0,KZ,1702005582
560,khilok,51.3674,110.4676,-23.46,79,97,6.01,RU,1702005583
561,altania,-23.8744,-53.9017,22.35,91,100,0.34,BR,1702005585
562,kirakira,-10.4544,161.9205,28.81,75,66,5.07,SB,1702005253
563,enewetak,11.3474,162.3373,27.81,78,91,8.59,MH,1702005043
564,yaren,-0.5472,166.916,25.93,88,100,4.7,NR,1702005174
565,bryne,58.7354,5.6477,2.21,70,100,6.69,NO,1702005589
566,urzhar,47.093,81.6294,-6.82,63,100,1.43,KZ,1702005591
567,richards bay,-28.783,32.0377,20.84,94,28,4.41,ZA,1702005170
